{
  "config": {
    "gameTitle": "Lovci pokladu staré Prahy",
    "totalDays": 5,
    "unlockRadiusMeters": 45,
    "startNodeId": 101
  },
  "nodes": [
    {
      "id": 101,
      "name": "Můstek",
      "lat": 50.0848,
      "lng": 14.4232,
      "kind": "transfer",
      "day": null
    },
    {
      "id": 102,
      "name": "Staroměstská",
      "lat": 50.0881,
      "lng": 14.4179,
      "kind": "transfer",
      "day": null
    },
    {
      "id": 103,
      "name": "Malostranská",
      "lat": 50.0913,
      "lng": 14.4095,
      "kind": "transfer",
      "day": null
    },
    {
      "id": 104,
      "name": "Náměstí Republiky",
      "lat": 50.0895,
      "lng": 14.4321,
      "kind": "transfer",
      "day": null
    },
    {
      "id": 105,
      "name": "Florenc",
      "lat": 50.0918,
      "lng": 14.4382,
      "kind": "transfer",
      "day": null
    },
    {
      "id": 106,
      "name": "Hlavní nádraží",
      "lat": 50.0830,
      "lng": 14.4359,
      "kind": "transfer",
      "day": null
    },
    {
      "id": 107,
      "name": "Muzeum",
      "lat": 50.0799,
      "lng": 14.4307,
      "kind": "transfer",
      "day": null
    },
    {
      "id": 108,
      "name": "I. P. Pavlova",
      "lat": 50.0754,
      "lng": 14.4308,
      "kind": "transfer",
      "day": null
    },
    {
      "id": 109,
      "name": "Karlovo náměstí",
      "lat": 50.0757,
      "lng": 14.4186,
      "kind": "transfer",
      "day": null
    },
    {
      "id": 110,
      "name": "Národní třída",
      "lat": 50.0818,
      "lng": 14.4205,
      "kind": "transfer",
      "day": null
    },
    {
      "id": 111,
      "name": "Anděl",
      "lat": 50.0755,
      "lng": 14.4043,
      "kind": "transfer",
      "day": null
    },
    {
      "id": 112,
      "name": "Smíchovské nádraží",
      "lat": 50.0727,
      "lng": 14.4035,
      "kind": "transfer",
      "day": null
    },
    {
      "id": 113,
      "name": "Vyšehrad",
      "lat": 50.0649,
      "lng": 14.4174,
      "kind": "transfer",
      "day": null
    },
    {
      "id": 114,
      "name": "Budějovická",
      "lat": 50.0447,
      "lng": 14.4486,
      "kind": "transfer",
      "day": null
    },
    {
      "id": 115,
      "name": "Kačerov",
      "lat": 50.0418,
      "lng": 14.4594,
      "kind": "transfer",
      "day": null
    },
    {
      "id": 116,
      "name": "Háje",
      "lat": 50.0306,
      "lng": 14.5260,
      "kind": "transfer",
      "day": null
    },
    {
      "id": 117,
      "name": "Jiřího z Poděbrad",
      "lat": 50.0788,
      "lng": 14.4514,
      "kind": "transfer",
      "day": null
    },
    {
      "id": 118,
      "name": "Flora",
      "lat": 50.0770,
      "lng": 14.4610,
      "kind": "transfer",
      "day": null
    },
    {
      "id": 119,
      "name": "Želivského",
      "lat": 50.0788,
      "lng": 14.4747,
      "kind": "transfer",
      "day": null
    },
    {
      "id": 120,
      "name": "Skalka",
      "lat": 50.0685,
      "lng": 14.5077,
      "kind": "transfer",
      "day": null
    },
    {
      "id": 121,
      "name": "Depo Hostivař",
      "lat": 50.0759,
      "lng": 14.5158,
      "kind": "transfer",
      "day": null
    },
    {
      "id": 122,
      "name": "Palmovka",
      "lat": 50.1036,
      "lng": 14.4752,
      "kind": "transfer",
      "day": null
    },
    {
      "id": 123,
      "name": "Českomoravská",
      "lat": 50.1046,
      "lng": 14.4920,
      "kind": "transfer",
      "day": null
    },
    {
      "id": 124,
      "name": "Vysočanská",
      "lat": 50.1109,
      "lng": 14.5012,
      "kind": "transfer",
      "day": null
    },
    {
      "id": 125,
      "name": "Černý Most",
      "lat": 50.1099,
      "lng": 14.5777,
      "kind": "transfer",
      "day": null
    },
    {
      "id": 126,
      "name": "Vltavská",
      "lat": 50.0988,
      "lng": 14.4394,
      "kind": "transfer",
      "day": null
    },
    {
      "id": 127,
      "name": "Nádraží Holešovice",
      "lat": 50.1105,
      "lng": 14.4402,
      "kind": "transfer",
      "day": null
    },
    {
      "id": 128,
      "name": "Kobylisy",
      "lat": 50.1242,
      "lng": 14.4538,
      "kind": "transfer",
      "day": null
    },
    {
      "id": 129,
      "name": "Ládví",
      "lat": 50.1266,
      "lng": 14.4690,
      "kind": "transfer",
      "day": null
    },
    {
      "id": 130,
      "name": "Hradčanská",
      "lat": 50.0969,
      "lng": 14.4046,
      "kind": "transfer",
      "day": null
    },
    {
      "id": 131,
      "name": "Dejvická",
      "lat": 50.1006,
      "lng": 14.3937,
      "kind": "transfer",
      "day": null
    },
    {
      "id": 132,
      "name": "Bořislavka",
      "lat": 50.0988,
      "lng": 14.3648,
      "kind": "transfer",
      "day": null
    },
    {
      "id": 133,
      "name": "Petřiny",
      "lat": 50.0869,
      "lng": 14.3439,
      "kind": "transfer",
      "day": null
    },
    {
      "id": 134,
      "name": "Zličín",
      "lat": 50.0516,
      "lng": 14.2910,
      "kind": "transfer",
      "day": null
    },
    {
      "id": 135,
      "name": "Nové Butovice",
      "lat": 50.0502,
      "lng": 14.3526,
      "kind": "transfer",
      "day": null
    },
    {
      "id": 136,
      "name": "Radlická",
      "lat": 50.0582,
      "lng": 14.3895,
      "kind": "transfer",
      "day": null
    },

    {
      "id": 201,
      "name": "Orloj",
      "lat": 50.0870,
      "lng": 14.4207,
      "kind": "station",
      "day": 1,
      "question": "Kolik apoštolů se objeví při odbíjení Orloje?",
      "acceptedAnswers": ["12", "dvanact"],
      "clueReward": "Indicie: Finální místo není uprostřed Starého Města."
    },
    {
      "id": 202,
      "name": "Karlův most",
      "lat": 50.0865,
      "lng": 14.4114,
      "kind": "station",
      "day": 1,
      "question": "Kolik mosteckých věží souvisí s Karlovým mostem?",
      "acceptedAnswers": ["3", "tri"],
      "clueReward": "Indicie: Poklad neleží na mostě."
    },
    {
      "id": 203,
      "name": "Národní divadlo",
      "lat": 50.0810,
      "lng": 14.4144,
      "kind": "station",
      "day": 1,
      "question": "Jaké heslo je napsané na budově Národního divadla?",
      "acceptedAnswers": ["narod sobe", "národ sobě", "narodsobe"],
      "clueReward": "Indicie: Hledejte místo s velmi starou českou historií."
    },
    {
      "id": 204,
      "name": "Prašná brána",
      "lat": 50.0875,
      "lng": 14.4270,
      "kind": "station",
      "day": 1,
      "question": "Jak se jmenuje historická cesta, která zde začínala?",
      "acceptedAnswers": ["kralovska cesta", "královská cesta"],
      "clueReward": "Indicie: Finální místo souvisí s obranou a hradbami."
    },
    {
      "id": 205,
      "name": "Václavské náměstí",
      "lat": 50.0810,
      "lng": 14.4253,
      "kind": "station",
      "day": 1,
      "question": "Kdo sedí na koni na horním konci náměstí?",
      "acceptedAnswers": ["svaty vaclav", "svatý václav", "vaclav", "václav"],
      "clueReward": "Indicie: Finální místo není moderní obchodní centrum."
    },
    {
      "id": 206,
      "name": "Střelecký ostrov",
      "lat": 50.0825,
      "lng": 14.4112,
      "kind": "fake",
      "day": 1,
      "fakeMessage": "Tady poklad není. Hledejte jinde."
    },

    {
      "id": 301,
      "name": "Petřín",
      "lat": 50.0836,
      "lng": 14.3959,
      "kind": "station",
      "day": 2,
      "question": "Jak se jmenuje kopec s rozhlednou a bludištěm?",
      "acceptedAnswers": ["petrin", "petřín"],
      "clueReward": "Indicie: Poklad leží nad řekou, ne dole u vody."
    },
    {
      "id": 302,
      "name": "Kampa",
      "lat": 50.0860,
      "lng": 14.4072,
      "kind": "station",
      "day": 2,
      "question": "Jak se jmenuje ostrovní park u Čertovky?",
      "acceptedAnswers": ["kampa"],
      "clueReward": "Indicie: Finální místo není malý ostrov."
    },
    {
      "id": 303,
      "name": "Pražský hrad",
      "lat": 50.0909,
      "lng": 14.4005,
      "kind": "station",
      "day": 2,
      "question": "Jak se jmenuje hlavní katedrála na Pražském hradě?",
      "acceptedAnswers": ["svaty vit", "svatý vít", "katedrala svateho vita", "katedrála svatého víta"],
      "clueReward": "Indicie: Poklad není uvnitř hradu."
    },
    {
      "id": 304,
      "name": "Strahovský klášter",
      "lat": 50.0864,
      "lng": 14.3899,
      "kind": "station",
      "day": 2,
      "question": "Jak se jmenuje slavný klášter nad Malou Stranou?",
      "acceptedAnswers": ["strahov", "strahovsky klaster", "strahovský klášter"],
      "clueReward": "Indicie: Hledejte místo spojené s pevností, ne s klášterem."
    },
    {
      "id": 305,
      "name": "Malostranské náměstí",
      "lat": 50.0878,
      "lng": 14.4045,
      "kind": "station",
      "day": 2,
      "question": "Ve které pražské čtvrti leží Malostranské náměstí?",
      "acceptedAnswers": ["mala strana", "malá strana"],
      "clueReward": "Indicie: Finální místo není na Malé Straně."
    },
    {
      "id": 306,
      "name": "Valdštejnská zahrada",
      "lat": 50.0910,
      "lng": 14.4080,
      "kind": "fake",
      "day": 2,
      "fakeMessage": "Hezké místo, ale indicie tu dnes není."
    },

    {
      "id": 401,
      "name": "Letenské sady",
      "lat": 50.0930,
      "lng": 14.4170,
      "kind": "station",
      "day": 3,
      "question": "Jak se jmenuje slavný objekt na Letné, který nahradil Stalinův pomník?",
      "acceptedAnswers": ["metronom", "prazsky metronom", "pražský metronom"],
      "clueReward": "Indicie: Z finálního místa je vidět řeka pod vámi."
    },
    {
      "id": 402,
      "name": "Stromovka",
      "lat": 50.1060,
      "lng": 14.4240,
      "kind": "station",
      "day": 3,
      "question": "Co je Stromovka především?",
      "acceptedAnswers": ["park"],
      "clueReward": "Indicie: Finální místo není obyčejný park."
    },
    {
      "id": 403,
      "name": "Trojský zámek",
      "lat": 50.1163,
      "lng": 14.4119,
      "kind": "station",
      "day": 3,
      "question": "Jak se jmenuje zámek poblíž zoo v Troji?",
      "acceptedAnswers": ["trojsky zamek", "trojský zámek", "trojsky", "trojský"],
      "clueReward": "Indicie: Poklad neleží na severu Prahy."
    },
    {
      "id": 404,
      "name": "Holešovická tržnice",
      "lat": 50.1030,
      "lng": 14.4453,
      "kind": "station",
      "day": 3,
      "question": "Jak se jmenuje velký tržní areál v Holešovicích?",
      "acceptedAnswers": ["holesovicka trznice", "holešovická tržnice", "trznice", "tržnice"],
      "clueReward": "Indicie: Hledejte místo se starými českými dějinami."
    },
    {
      "id": 405,
      "name": "Výstaviště",
      "lat": 50.1047,
      "lng": 14.4309,
      "kind": "station",
      "day": 3,
      "question": "Jak se jmenuje areál v Holešovicích, kde bývají veletrhy a akce?",
      "acceptedAnswers": ["vystaviste", "výstaviště"],
      "clueReward": "Indicie: Poklad není v místě moderních výstav."
    },
    {
      "id": 406,
      "name": "Císařský ostrov",
      "lat": 50.1137,
      "lng": 14.4302,
      "kind": "fake",
      "day": 3,
      "fakeMessage": "Tato stopa vás nikam neposune. Zkuste jiné místo."
    },

    {
      "id": 501,
      "name": "Náměstí Míru",
      "lat": 50.0756,
      "lng": 14.4378,
      "kind": "station",
      "day": 4,
      "question": "Jak se jmenuje kostel na Náměstí Míru?",
      "acceptedAnswers": ["svata ludmila", "svatá ludmila", "kostel svate ludmily", "kostel svaté ludmily"],
      "clueReward": "Indicie: Finální místo není na Vinohradech."
    },
    {
      "id": 502,
      "name": "Jiřího z Poděbrad",
      "lat": 50.0781,
      "lng": 14.4505,
      "kind": "station",
      "day": 4,
      "question": "Jak se zkráceně říká náměstí Jiřího z Poděbrad?",
      "acceptedAnswers": ["jzp"],
      "clueReward": "Indicie: Poklad nesouvisí s farmářskými trhy."
    },
    {
      "id": 503,
      "name": "Žižkovská věž",
      "lat": 50.0810,
      "lng": 14.4509,
      "kind": "station",
      "day": 4,
      "question": "Jak se jmenuje vysoká věž s miminy na povrchu?",
      "acceptedAnswers": ["zizkovska vez", "žižkovská věž", "zizkovska televizni vez", "žižkovská televizní věž"],
      "clueReward": "Indicie: Finální místo není televizní věž."
    },
    {
      "id": 504,
      "name": "Karlínské náměstí",
      "lat": 50.0924,
      "lng": 14.4502,
      "kind": "station",
      "day": 4,
      "question": "Ve které čtvrti leží Karlínské náměstí?",
      "acceptedAnswers": ["karlin", "karlín"],
      "clueReward": "Indicie: Hledejte místo spojené s pevností a knížaty."
    },
    {
      "id": 505,
      "name": "Riegrovy sady",
      "lat": 50.0790,
      "lng": 14.4428,
      "kind": "station",
      "day": 4,
      "question": "Jak se jmenuje park s výhledem na Pražský hrad nad hlavním nádražím?",
      "acceptedAnswers": ["riegrovy sady"],
      "clueReward": "Indicie: Finální místo může souviset s rotundou."
    },
    {
      "id": 506,
      "name": "Olšanské hřbitovy",
      "lat": 50.0818,
      "lng": 14.4628,
      "kind": "fake",
      "day": 4,
      "fakeMessage": "Tohle není správná stopa. Pokračujte dál."
    },

    {
      "id": 601,
      "name": "Vyšehrad",
      "lat": 50.0648,
      "lng": 14.4177,
      "kind": "station",
      "day": 5,
      "question": "Jak se jmenuje pražská pevnost a historické sídlo knížat nad Vltavou?",
      "acceptedAnswers": ["vysehrad", "vyšehrad"],
      "clueReward": "Indicie: Finální řešení silně ukazuje na Vyšehrad."
    },
    {
      "id": 602,
      "name": "Rotunda sv. Martina",
      "lat": 50.0656,
      "lng": 14.4193,
      "kind": "station",
      "day": 5,
      "question": "Jak se jmenuje starobylá rotunda na Vyšehradě?",
      "acceptedAnswers": ["rotunda sv martina", "rotunda sv. martina", "svaty martin", "svatý martin"],
      "clueReward": "Indicie: Hledejte místo se starobylou sakrální stavbou."
    },
    {
      "id": 603,
      "name": "Slavín",
      "lat": 50.0642,
      "lng": 14.4188,
      "kind": "station",
      "day": 5,
      "question": "Jak se jmenuje známý vyšehradský hřbitovní panteon?",
      "acceptedAnswers": ["slavin", "slavín"],
      "clueReward": "Indicie: Poklad není na běžném městském náměstí."
    },
    {
      "id": 604,
      "name": "Podolská vodárna",
      "lat": 50.0562,
      "lng": 14.4200,
      "kind": "station",
      "day": 5,
      "question": "Jak se jmenuje historická vodárna u Vltavy v Podolí?",
      "acceptedAnswers": ["podolska vodarna", "podolská vodárna", "vodarna", "vodárna"],
      "clueReward": "Indicie: Finální místo je vysoko nad řekou, ne dole u vody."
    },
    {
      "id": 605,
      "name": "Nuselský most",
      "lat": 50.0688,
      "lng": 14.4304,
      "kind": "station",
      "day": 5,
      "question": "Jak se jmenuje velký most vedoucí nad Nuselským údolím?",
      "acceptedAnswers": ["nuselsky most", "nuselský most"],
      "clueReward": "Indicie: Finální místo není na moderním mostě."
    },
    {
      "id": 606,
      "name": "Císařská louka",
      "lat": 50.0628,
      "lng": 14.4065,
      "kind": "fake",
      "day": 5,
      "fakeMessage": "Na tomto místě žádná indicie není. Pokračujte jinam."
    }
  ],
  "routes": [
    { "from": 101, "to": 104, "transport": "metro" },
    { "from": 104, "to": 105, "transport": "metro" },
    { "from": 101, "to": 102, "transport": "metro" },
    { "from": 101, "to": 107, "transport": "metro" },
    { "from": 107, "to": 108, "transport": "metro" },
    { "from": 108, "to": 113, "transport": "metro" },
    { "from": 113, "to": 114, "transport": "metro" },
    { "from": 114, "to": 115, "transport": "metro" },
    { "from": 115, "to": 116, "transport": "metro" },

    { "from": 107, "to": 106, "transport": "metro" },
    { "from": 106, "to": 105, "transport": "metro" },
    { "from": 105, "to": 122, "transport": "metro" },
    { "from": 122, "to": 123, "transport": "metro" },
    { "from": 123, "to": 124, "transport": "metro" },
    { "from": 124, "to": 125, "transport": "metro" },

    { "from": 102, "to": 103, "transport": "metro" },
    { "from": 103, "to": 130, "transport": "metro" },
    { "from": 130, "to": 131, "transport": "metro" },
    { "from": 131, "to": 132, "transport": "metro" },
    { "from": 132, "to": 133, "transport": "metro" },

    { "from": 111, "to": 136, "transport": "metro" },
    { "from": 136, "to": 135, "transport": "metro" },
    { "from": 135, "to": 134, "transport": "metro" },

    { "from": 117, "to": 118, "transport": "metro" },
    { "from": 118, "to": 119, "transport": "metro" },
    { "from": 119, "to": 120, "transport": "metro" },
    { "from": 120, "to": 121, "transport": "metro" },

    { "from": 126, "to": 127, "transport": "metro" },
    { "from": 127, "to": 128, "transport": "metro" },
    { "from": 128, "to": 129, "transport": "metro" },

    { "from": 101, "to": 110, "transport": "walk" },
    { "from": 110, "to": 109, "transport": "walk" },
    { "from": 109, "to": 108, "transport": "walk" },
    { "from": 102, "to": 201, "transport": "walk" },
    { "from": 102, "to": 202, "transport": "walk" },
    { "from": 110, "to": 203, "transport": "walk" },
    { "from": 104, "to": 204, "transport": "walk" },
    { "from": 101, "to": 205, "transport": "walk" },
    { "from": 110, "to": 206, "transport": "walk" },

    { "from": 103, "to": 302, "transport": "walk" },
    { "from": 103, "to": 305, "transport": "walk" },
    { "from": 103, "to": 306, "transport": "walk" },
    { "from": 130, "to": 303, "transport": "walk" },
    { "from": 131, "to": 304, "transport": "tram" },
    { "from": 103, "to": 301, "transport": "tram" },

    { "from": 126, "to": 401, "transport": "walk" },
    { "from": 401, "to": 402, "transport": "walk" },
    { "from": 127, "to": 403, "transport": "tram" },
    { "from": 126, "to": 404, "transport": "tram" },
    { "from": 126, "to": 405, "transport": "tram" },
    { "from": 127, "to": 406, "transport": "walk" },

    { "from": 107, "to": 501, "transport": "metro" },
    { "from": 117, "to": 501, "transport": "walk" },
    { "from": 117, "to": 502, "transport": "walk" },
    { "from": 117, "to": 503, "transport": "tram" },
    { "from": 105, "to": 504, "transport": "tram" },
    { "from": 106, "to": 505, "transport": "walk" },
    { "from": 118, "to": 506, "transport": "walk" },

    { "from": 113, "to": 601, "transport": "walk" },
    { "from": 601, "to": 602, "transport": "walk" },
    { "from": 601, "to": 603, "transport": "walk" },
    { "from": 114, "to": 604, "transport": "tram" },
    { "from": 113, "to": 605, "transport": "tram" },
    { "from": 112, "to": 606, "transport": "walk" },

    { "from": 202, "to": 302, "transport": "boat" },
    { "from": 302, "to": 203, "transport": "boat" },
    { "from": 203, "to": 604, "transport": "boat" },

    { "from": 101, "to": 111, "transport": "bolt" },
    { "from": 111, "to": 113, "transport": "bolt" },
    { "from": 105, "to": 127, "transport": "bolt" },
    { "from": 131, "to": 135, "transport": "bolt" },
    { "from": 122, "to": 116, "transport": "bolt" }
  ]
}
